City_ID,City,Lat,Lng,Max Temp,Humidity,Cloudiness,Wind Speed,Country,Date
0,cidreira,-30.1811,-50.2056,20.16,81,96,3.2,BR,1690388381
1,waitangi,-43.9535,-176.5597,9.43,68,85,11.33,NZ,1690388877
2,patacamaya,-17.2333,-67.9167,12.68,8,0,4.08,BO,1690388723
3,cabo san lucas,22.8909,-109.9124,31.95,66,75,2.57,MX,1690388877
4,muang phonsavan,19.45,103.2167,20.19,93,43,0.84,LA,1690388877
5,tiksi,71.6872,128.8694,3.04,92,47,1.49,RU,1690388349
6,moapa valley,36.5805,-114.4703,36.97,19,7,0.95,US,1690388876
7,ushuaia,-54.8,-68.3,0.81,64,20,2.06,AR,1690388710
8,margaret river,-33.95,115.0667,12.42,82,100,10.04,AU,1690388395
9,yellowknife,62.456,-114.3525,22.29,43,75,7.72,CA,1690388335
10,kuching,1.55,110.3333,27.21,93,20,0.89,MY,1690388878
11,new norfolk,-42.7826,147.0587,10.95,93,100,1.41,AU,1690388378
12,isafjordur,66.0755,-23.124,10.02,66,75,5.14,IS,1690388289
13,stanley,54.868,-1.6985,20.16,56,20,3.6,GB,1690388359
14,jamestown,42.097,-79.2353,28.34,55,89,2.68,US,1690388304
15,puerto natales,-51.7236,-72.4875,1.64,84,47,1.68,CL,1690388333
16,bilibino,68.0546,166.4372,6.48,85,71,1.38,RU,1690388349
17,xinyuan,37.3,99.0,8.29,91,100,1.32,CN,1690388879
18,lebu,-37.6167,-73.65,9.23,81,100,2.76,CL,1690388348
19,happy valley-goose bay,53.3168,-60.3315,25.17,50,40,4.63,CA,1690388879
20,sinsang-ni,39.6503,127.4058,23.28,87,95,2.96,KP,1690388879
21,talnakh,69.4865,88.3972,21.23,58,62,1.31,RU,1690388412
22,atafu village,-8.5421,-172.5159,27.98,77,90,8.86,TK,1690388367
23,nuuk,64.1835,-51.7216,6.34,93,75,5.14,GL,1690388666
24,tekkali,18.6167,84.2333,27.96,88,95,3.07,IN,1690388879
25,hawaiian paradise park,19.5933,-154.9731,22.8,99,75,2.57,US,1690388334
26,antalaha,-14.9003,50.2788,21.7,80,87,4.58,MG,1690388879
27,masuda,34.6667,131.85,25.17,84,28,1.84,JP,1690388880
28,papao,-17.75,-149.55,24.82,91,80,4.57,PF,1690388365
29,saudarkrokur,65.7461,-19.6394,11.74,73,24,3.32,IS,1690388880
30,adamstown,-25.066,-130.1015,19.96,72,58,9.99,PN,1690388301
31,port mathurin,-19.6833,63.4167,23.72,80,7,5.73,MU,1690388365
32,utrik,11.2278,169.8474,28.11,81,100,8.21,MH,1690388366
33,revda,56.801,59.9303,16.24,92,97,1.8,RU,1690388880
34,grytviken,-54.2811,-36.5092,-1.53,86,85,5.28,GS,1690388335
35,dunedin,-45.8742,170.5036,7.11,66,65,7.15,NZ,1690388881
36,whitehorse,60.7161,-135.0538,14.89,94,75,1.54,CA,1690388881
37,east london,-33.0153,27.9116,18.52,63,0,3.6,ZA,1690388336
38,mocimboa,-11.3167,40.35,23.56,79,3,6.04,MZ,1690388881
39,kalmunai,7.4167,81.8167,28.91,68,100,3.46,LK,1690388452
40,haiku-pauwela,20.9219,-156.3051,24.47,79,40,5.66,US,1690388432
41,yicheng,31.3705,119.8703,27.14,81,71,6.88,CN,1690388882
42,longyearbyen,78.2186,15.6401,11.91,58,20,5.66,SJ,1690388346
43,qamdo,31.1667,97.2333,5.29,83,76,2.77,CN,1690388877
44,mbabane,-26.3167,31.1333,12.92,60,4,1.98,SZ,1690388882
45,carbonear,47.7332,-53.2148,29.3,56,61,5.04,CA,1690388882
46,maktar,35.858,9.2007,30.02,32,4,7.73,TN,1690388882
47,khawr fakkan,25.3313,56.342,29.03,77,78,3.0,AE,1690388882
48,longido,-2.7333,36.6833,21.39,39,72,6.04,TZ,1690388883
49,san patricio,28.017,-97.5169,35.05,43,0,4.35,US,1690388883
50,sorong,-0.8833,131.25,25.44,88,84,4.74,ID,1690388352
51,sabac,44.7467,19.69,22.19,70,99,6.52,RS,1690388884
52,geraldton,-28.7667,114.6,11.23,87,40,2.57,AU,1690388348
53,sitka,57.0531,-135.33,13.94,94,100,2.06,US,1690388358
54,vilyuchinsk,52.9306,158.4028,13.15,85,78,1.07,RU,1690388369
55,saipan,15.1355,145.701,27.39,100,40,7.2,MP,1690388428
56,port elizabeth,-33.918,25.5701,16.16,77,0,2.06,ZA,1690388367
57,buala,-8.145,159.5921,26.4,85,100,2.09,SB,1690388388
58,igarka,67.4667,86.5833,20.24,78,3,3.47,RU,1690388885
59,port-aux-francais,-49.35,70.2167,4.98,85,98,19.23,TF,1690388333
60,georgetown,5.4112,100.3354,28.96,89,20,1.54,MY,1690388377
61,el granada,37.5027,-122.4694,22.72,85,75,6.69,US,1690388654
62,mabaruma,8.2,-59.7833,28.83,79,36,1.66,GY,1690388885
63,edinburgh of the seven seas,-37.0676,-12.3116,10.17,53,85,8.24,SH,1690388351
64,nagqu,31.5,92.0,6.54,75,100,1.34,CN,1690388886
65,rio gallegos,-51.6226,-69.2181,-2.97,86,0,4.63,AR,1690388886
66,bethel,41.3712,-73.414,29.94,63,0,2.06,US,1690388332
67,sao vicente,-23.9631,-46.3919,31.1,43,0,2.68,BR,1690388891
68,kruisfontein,-34.0033,24.7314,14.38,58,95,0.93,ZA,1690388891
69,afaahiti,-17.75,-149.2833,23.93,89,72,5.05,PF,1690388336
70,fremont,37.5483,-121.9886,24.8,77,40,3.6,US,1690388322
71,bredasdorp,-34.5322,20.0403,11.35,80,97,2.05,ZA,1690388332
72,holualoa,19.6228,-155.9522,23.91,87,40,2.06,US,1690388861
73,west end,26.6833,-78.9667,26.99,67,100,6.63,BS,1690388892
74,thompson,55.7435,-97.8558,13.09,76,75,3.6,CA,1690388197
75,coquimbo,-29.9533,-71.3436,14.85,82,75,3.6,CL,1690388348
76,petropavlovsk-kamchatsky,53.0452,158.6483,12.33,100,20,1.0,RU,1690388344
77,moab,38.5733,-109.5498,33.05,27,10,0.45,US,1690388893
78,ishim,56.1128,69.4902,19.15,64,47,2.26,RU,1690388893
79,puro,12.4841,123.3827,26.96,84,100,6.9,PH,1690388894
80,maun,-19.9833,23.4167,24.98,27,0,2.06,BW,1690388894
81,albany,42.6001,-73.9662,28.43,74,4,0.89,US,1690388295
82,pyetrykaw,52.1289,28.4921,21.72,68,96,2.45,BY,1690388895
83,ribeira grande,38.5167,-28.7,25.22,73,40,5.66,PT,1690388353
84,nushki,29.5542,66.0215,31.59,44,26,4.02,PK,1690388742
85,tirano,46.2154,10.1679,25.78,29,90,0.63,IT,1690388895
86,haiphong,20.8561,106.6822,29.95,84,0,2.06,VN,1690388632
87,lompoc,34.6391,-120.4579,23.85,85,40,3.09,US,1690388333
88,garhi khairo,28.0606,67.9803,34.41,58,98,2.79,PK,1690388896
89,laojunmiao,39.8333,97.7333,24.96,26,95,3.41,CN,1690388896
90,rawson,-43.3002,-65.1023,5.78,56,60,6.27,AR,1690388897
91,tianpeng,30.9866,103.9393,23.26,91,99,0.63,CN,1690388897
92,college,64.8569,-147.8028,20.18,82,75,2.57,US,1690388205
93,constantia,44.1833,28.65,28.38,60,19,3.42,RO,1690388377
94,gumdag,39.2061,54.5906,29.63,58,96,7.66,TM,1690388897
95,bojnurd,37.4747,57.329,23.97,64,20,7.2,IR,1690388897
96,kutoarjo,-7.7169,109.9128,21.05,89,29,1.8,ID,1690388897
97,rovnoye,50.7765,46.0509,26.67,50,10,2.82,RU,1690388897
98,gudermes,43.3569,46.1053,27.69,59,0,6.12,RU,1690388898
99,enewetak,11.3474,162.3373,28.12,79,97,7.06,MH,1690388898
100,polyarnyy,69.1989,33.4478,11.1,92,99,2.03,RU,1690388417
101,north bend,43.4065,-124.2243,17.36,77,0,2.57,US,1690388898
102,avarua,-21.2078,-159.775,19.03,94,75,1.54,CK,1690388313
103,broome,42.2506,-75.833,29.14,62,0,3.6,US,1690388402
104,mana,5.6592,-53.7767,28.97,70,13,3.47,GF,1690388899
105,az zawr,29.4425,48.2747,38.86,60,25,3.83,KW,1690388904
106,riberalta,-10.9833,-66.1,32.11,48,3,4.12,BO,1690388904
107,iskateley,67.6803,53.1512,19.49,77,100,1.72,RU,1690388344
108,hithadhoo,-0.6,73.0833,28.5,78,54,7.06,MV,1690388358
109,berber,18.0216,33.983,38.06,27,95,9.13,SD,1690388905
110,gawan,28.4333,78.35,26.77,85,100,2.18,IN,1690388905
111,nemuro,43.3236,145.575,16.66,98,77,0.29,JP,1690388365
112,as sulayyil,20.4607,45.5779,42.14,7,41,3.22,SA,1690388905
113,la passe,45.5549,-0.8967,24.13,64,34,5.82,FR,1690388905
114,punta arenas,-53.15,-70.9167,2.32,69,44,6.46,CL,1690388335
115,port alfred,-33.5906,26.891,17.32,61,41,0.45,ZA,1690388396
116,st. john's,47.5649,-52.7093,29.53,52,75,6.17,CA,1690388368
117,nyurba,63.2842,118.3319,16.83,61,96,2.27,RU,1690388425
118,kovancilar,38.7214,39.8681,32.69,24,19,1.44,TR,1690388907
119,launceston,-41.45,147.1667,9.33,92,100,4.12,AU,1690388907
120,mejit,10.2753,170.8646,28.16,79,100,8.05,MH,1690388426
121,wailua homesteads,22.0669,-159.378,24.44,87,100,6.69,US,1690388404
122,sandnessjoen,66.0217,12.6316,21.29,64,40,4.12,NO,1690388908
123,sinabang,2.4803,96.3801,27.0,81,77,1.91,ID,1690388908
124,ayvacik,39.6011,26.4047,35.69,24,9,2.85,TR,1690388908
125,olonkinbyen,70.9221,-8.7187,4.95,93,100,5.11,SJ,1690388379
126,naifaru,5.4444,73.3657,28.37,77,100,1.41,MV,1690388909
127,jayapura,-2.5333,140.7,24.66,90,98,3.17,ID,1690388909
128,sol'-iletsk,51.1631,54.9918,26.12,43,70,3.84,RU,1690388401
129,helsa,51.2667,9.6833,19.69,65,94,4.76,DE,1690388909
130,turpan,42.9333,89.1667,39.97,11,24,2.6,CN,1690388450
131,arraial do cabo,-22.9661,-42.0278,23.92,78,100,6.17,BR,1690388505
132,nata,8.3333,-80.5167,29.93,87,100,1.79,PA,1690388909
133,invercargill,-46.4,168.35,5.61,89,94,12.37,NZ,1690388334
134,longquan,24.6719,102.1613,20.0,90,99,1.7,CN,1690388910
135,tomatlan,19.9333,-105.25,31.48,55,82,0.53,MX,1690388910
136,vorgashor,67.5833,63.95,16.42,80,99,3.84,RU,1690388910
137,puerto baquerizo moreno,-0.9,-89.6,26.55,78,40,6.17,EC,1690388693
138,thetford-mines,46.0937,-71.3054,24.06,62,38,4.37,CA,1690388910
139,hola,51.5377,23.1902,15.1,92,100,6.17,PL,1690388911
140,laguna,38.421,-121.4238,29.43,57,0,4.63,US,1690388911
141,lihue,21.9789,-159.3672,24.77,87,100,6.69,US,1690388911
142,bukama,-9.2,25.85,29.86,19,10,2.13,CD,1690388911
143,blackmans bay,-43.0167,147.3167,10.29,85,100,2.5,AU,1690388320
144,hamilton,39.1834,-84.5333,32.63,66,0,6.69,US,1690388125
145,gweru,-19.45,29.8167,16.84,42,45,2.64,ZW,1690388912
146,lakshettipet,18.8667,79.2167,27.73,87,98,3.45,IN,1690388912
147,najran,17.4924,44.1277,37.36,10,97,4.88,SA,1690388498
148,hermanus,-34.4187,19.2345,13.22,84,82,4.68,ZA,1690388347
149,altay,47.8667,88.1167,23.27,34,36,3.32,CN,1690388912
150,richards bay,-28.783,32.0377,19.9,72,82,7.48,ZA,1690388490
151,hasaki,35.7333,140.8333,26.28,87,12,3.47,JP,1690388143
152,rio grande,-32.035,-52.0986,18.06,90,100,7.37,BR,1690388267
153,susuman,62.7833,148.1667,11.32,85,100,1.97,RU,1690388413
154,ghat,24.9647,10.1728,40.42,7,5,6.6,LY,1690388913
155,iqaluit,63.7506,-68.5145,7.85,81,75,1.54,CA,1690388913
156,ternate,0.8,127.4,26.65,80,100,2.9,ID,1690388913
157,tazovsky,67.4667,78.7,18.46,71,63,4.04,RU,1690388390
158,mercedes,-34.6515,-59.4307,15.53,55,6,6.81,AR,1690388914
159,vila franca do campo,37.7167,-25.4333,24.23,65,59,0.52,PT,1690388914
160,qujing,25.4833,103.7833,19.0,86,100,2.2,CN,1690388914
161,bengkulu,-3.8004,102.2655,24.89,90,36,2.91,ID,1690388914
162,koungheul,13.9833,-14.8,33.97,52,100,2.76,SN,1690388914
163,wuwei,37.9281,102.6414,22.88,47,100,0.89,CN,1690388914
164,kodiak,57.79,-152.4072,11.73,100,100,0.0,US,1690388395
165,yangjiang,21.85,111.9667,28.7,77,82,1.91,CN,1690388915
166,ghanzi,-21.5667,21.7833,22.5,23,0,3.14,BW,1690388915
167,cockburn town,21.4612,-71.1419,29.98,70,40,4.12,TC,1690388392
168,gaigeturi,33.4644,126.3183,27.03,94,75,1.54,KR,1690388915
169,puerto ayora,-0.7393,-90.3518,29.98,90,42,4.02,EC,1690388359
170,bintulu,3.1667,113.0333,26.88,86,98,2.03,MY,1690388915
171,glace bay,46.1969,-59.957,28.21,62,75,4.12,CA,1690388616
172,gangolli,13.65,74.6667,24.96,89,100,5.85,IN,1690388916
173,sabang,5.8933,95.3214,28.29,81,100,9.19,ID,1690388916
174,dakoro,14.5106,6.765,36.91,32,87,2.8,NE,1690388916
175,anadyr,64.75,177.4833,10.28,93,75,3.0,RU,1690388360
176,ulsteinvik,62.3432,5.8487,18.28,88,31,3.13,NO,1690388413
177,dudinka,69.4058,86.1778,21.46,69,0,3.98,RU,1690388394
178,isla aguada,18.7833,-91.4667,30.02,69,47,2.75,MX,1690388916
179,yemva,62.59,50.8594,18.81,66,99,1.43,RU,1690388916
180,mata-utu,-13.2816,-176.1745,26.49,76,99,7.29,WF,1690388917
181,cafayate,-26.073,-65.9761,19.02,24,0,3.98,AR,1690388917
182,kingston,17.997,-76.7936,34.02,63,20,3.6,JM,1690388389
183,touros,-5.1989,-35.4608,29.45,58,12,8.13,BR,1690388123
184,argo,37.6333,22.7333,34.88,13,6,6.18,GR,1690388917
185,coro,11.4045,-69.6734,30.94,62,59,3.58,VE,1690388918
186,ust-nera,64.5667,143.2,11.06,94,84,3.59,RU,1690388346
187,suva reka,42.3586,20.825,28.67,41,62,6.98,XK,1690388918
188,harper,4.375,-7.7169,26.14,83,66,5.1,LR,1690388383
189,port lincoln,-34.7333,135.8667,12.25,56,0,4.55,AU,1690388502
190,dingcheng,32.1272,115.0394,25.19,83,1,3.16,CN,1690388918
191,naze,28.3667,129.4833,27.51,84,100,5.12,JP,1690388918
192,shitanjing,39.2342,106.3439,25.91,42,100,0.47,CN,1690388918
193,tejen,37.3834,60.5054,37.87,22,2,11.4,TM,1690388407
194,toliara,-23.35,43.6667,22.72,41,0,6.68,MG,1690388919
195,belo sur tsiribihina,-19.7,44.55,20.85,82,4,3.46,MG,1690388919
196,solnechnyy,50.7214,136.6319,17.54,93,9,1.19,RU,1690388482
197,tura,25.5198,90.2201,24.38,94,100,2.48,IN,1690388363
198,xichang,27.8964,102.2634,20.55,92,99,1.04,CN,1690388919
199,altai,46.3722,96.2583,17.24,28,43,1.25,MN,1690388919
200,tofol,5.3248,163.0078,28.29,74,100,4.24,FM,1690388919
201,guerrero negro,27.9769,-114.0611,23.82,61,5,3.04,MX,1690388437
202,zaysan,47.4667,84.8667,25.5,24,80,2.55,KZ,1690388919
203,aasiaat,68.7098,-52.8699,3.39,86,52,3.78,GL,1690388340
204,la'ie,21.6477,-157.9253,25.98,77,60,6.53,US,1690388436
205,papatowai,-46.5619,169.4708,4.47,95,100,10.42,NZ,1690388327
206,sosnovo-ozerskoye,52.5249,111.5418,13.79,94,100,1.95,RU,1690388920
207,aoulef,26.9667,1.0833,46.35,8,2,4.09,DZ,1690388920
208,xai-xai,-25.0519,33.6442,18.64,69,53,5.04,MZ,1690388920
209,emerald,-23.5333,148.1667,12.5,70,1,4.54,AU,1690388921
210,gannan,47.9147,123.5031,20.74,82,62,0.44,CN,1690388921
211,badger,64.8,-147.5333,20.14,82,75,2.57,US,1690388356
212,taulaga,-11.0553,-171.0883,27.59,70,94,7.49,AS,1690388336
213,la manga del mar menor,37.6413,-0.7165,32.0,71,20,4.63,ES,1690388921
214,aktau,43.65,51.2,29.32,43,7,6.83,KZ,1690388786
215,flying fish cove,-10.4217,105.6791,24.82,88,100,3.09,CX,1690388336
216,karak city,31.1637,35.762,31.58,15,1,4.78,JO,1690388921
217,virginia beach,36.8529,-75.978,33.36,75,20,4.12,US,1690388874
218,santa elena de uairen,4.6167,-61.1333,25.2,69,66,2.53,VE,1690388484
219,tralee,52.2704,-9.7026,18.14,94,100,9.26,IE,1690388337
220,zaozersk,69.4005,32.4476,12.44,84,93,2.84,RU,1690388922
221,morehead,37.2711,-87.1764,28.86,77,100,3.09,US,1690388922
222,huntsville,34.7304,-86.5861,32.34,62,0,3.09,US,1690388764
223,west island,-12.1568,96.8225,24.99,83,100,11.83,CC,1690388332
224,sabana de torres,7.3915,-73.4957,32.34,85,100,0.36,CO,1690388923
225,pisco,-13.7,-76.2167,20.03,68,100,2.57,PE,1690388711
226,fort bragg,35.139,-79.006,34.95,55,20,0.0,US,1690388099
227,queenstown,-31.8976,26.8753,16.52,41,6,2.38,ZA,1690388923
228,shagonar,51.5333,92.8,18.0,61,49,0.97,RU,1690388923
229,fuglafjordur,62.244,-6.814,12.26,75,10,3.2,FO,1690388923
230,kristiansund,63.1115,7.732,18.36,72,75,4.63,NO,1690388439
231,konarka,19.9,86.1167,28.22,84,81,6.78,IN,1690388923
232,prado,-17.3411,-39.2208,25.0,63,17,3.59,BR,1690388923
233,kavaratti,10.5669,72.642,28.28,76,100,6.17,IN,1690388506
234,bardai,11.65,7.2333,32.92,38,34,2.67,NG,1690388924
235,labuan,5.2767,115.2417,26.2,94,20,0.0,MY,1690388924
236,maumere,-8.6199,122.2111,23.92,78,55,3.7,ID,1690388924
237,ilulissat,69.2167,-51.1,7.32,59,0,2.67,GL,1690388330
238,cururupu,-1.8283,-44.8683,31.16,55,30,3.58,BR,1690388924
239,manta,-0.95,-80.7333,28.88,73,20,5.81,EC,1690388860
240,portland,45.5234,-122.6762,20.09,70,20,2.57,US,1690388242
241,torghay,49.6339,63.4981,24.8,51,45,5.27,KZ,1690388390
242,crane,31.3974,-102.3501,31.04,37,34,8.17,US,1690388925
243,siwa oasis,29.2041,25.5195,40.26,12,0,4.87,EG,1690388925
244,princeville,45.7668,-61.2985,27.57,64,75,4.12,CA,1690388925
245,san antonio de pale,-1.4014,5.6325,23.32,88,95,4.83,GQ,1690388925
246,bandar,2.05,99.75,24.1,88,68,1.25,ID,1690388925
247,lerwick,60.1545,-1.1494,14.0,74,75,5.04,GB,1690388925
248,timbiqui,2.7717,-77.6654,29.36,70,100,1.72,CO,1690388926
249,buka,40.8108,69.1986,32.62,12,1,2.82,UZ,1690388367
250,carnarvon,-24.8667,113.6333,16.65,58,65,7.68,AU,1690388355
251,eyl,7.9803,49.8164,25.31,76,50,11.63,SO,1690388926
252,spirit lake,43.4222,-95.1022,28.73,77,0,0.89,US,1690388926
253,vernon,50.2581,-119.2691,18.74,50,7,2.24,CA,1690388439
254,tual,-5.6667,132.75,25.83,82,97,9.21,ID,1690388410
255,center,31.5107,-96.4247,34.89,54,0,5.66,US,1690388926
256,ulan bator,47.9077,106.8832,12.07,82,20,2.0,MN,1690388927
257,beichengqu,40.4394,113.1536,18.48,83,83,0.78,CN,1690388927
258,hadim,36.9878,32.4567,26.89,22,0,3.75,TR,1690388927
259,san julian,21.0167,-102.1667,19.24,67,67,3.14,MX,1690388927
260,poronaysk,49.2167,143.1167,15.09,99,98,1.77,RU,1690388352
261,yepocapa,14.5042,-90.9569,23.62,39,29,0.64,GT,1690388928
262,milton-freewater,45.9326,-118.3877,22.42,49,1,0.45,US,1690388928
263,nova londrina,-22.7658,-52.985,29.58,37,64,5.03,BR,1690388933
264,brookings,44.3114,-96.7984,29.47,79,0,4.12,US,1690388902
265,la ronge,55.1001,-105.2842,17.14,67,100,4.63,CA,1690388896
266,sharypovo,55.5403,89.2008,15.82,79,9,2.77,RU,1690388933
267,pacific grove,36.6177,-121.9166,17.36,96,100,3.13,US,1690388420
268,san felipe,10.3399,-68.7425,32.42,47,49,2.86,VE,1690388933
269,bel ombre,-4.6167,55.4167,25.91,83,40,6.17,SC,1690388906
270,san juan de miraflores,-12.1629,-76.9635,21.21,76,34,3.29,PE,1690388933
271,udachny,66.4167,112.4,16.92,77,94,2.4,RU,1690388300
272,chokwe,-24.5333,32.9833,20.48,46,26,1.82,MZ,1690388934
273,tolanaro,-25.0319,46.9987,18.62,71,90,3.8,MG,1690388439
274,alesund,62.4723,6.1549,18.28,88,75,4.12,NO,1690388934
275,vargashi,55.3556,65.8467,20.66,56,67,1.0,RU,1690388934
276,susanville,40.4163,-120.653,25.62,27,0,1.34,US,1690388934
277,wanning,18.8003,110.3967,27.79,84,100,3.1,CN,1690388827
278,camana,-16.6228,-72.7111,19.44,74,25,4.11,PE,1690388502
279,mossel bay,-34.1831,22.146,11.96,75,96,2.98,ZA,1690388935
280,kemsing,51.306,0.2292,20.48,54,20,5.66,GB,1690388935
281,morondava,-20.2833,44.2833,22.71,74,0,6.21,MG,1690388461
282,issia,6.4922,-6.5856,27.6,76,76,1.62,CI,1690388935
283,houghton,47.1219,-88.569,21.71,93,100,5.14,US,1690388935
284,chonchi,-42.6128,-73.8092,9.51,83,100,1.23,CL,1690388363
285,aral,40.5156,81.2636,32.2,22,2,2.41,CN,1690388935
286,molina,-35.1167,-71.2833,7.98,86,100,2.06,CL,1690388935
287,mwanza,-2.5167,32.9,26.82,29,27,3.29,TZ,1690388936
288,tonekabon,36.8163,50.8738,24.97,80,48,0.93,IR,1690388936
289,williams lake,52.1415,-122.1445,13.36,83,75,2.06,CA,1690388936
290,pampa del infierno,-26.5052,-61.1744,17.69,58,100,3.99,AR,1690388936
291,clarksville,36.5298,-87.3595,29.8,71,0,4.12,US,1690388919
292,dabhol,17.6,73.1667,24.19,96,100,8.29,IN,1690388936
293,kodinsk,58.6881,99.1844,17.35,80,56,1.51,RU,1690388936
294,qaqortoq,60.7167,-46.0333,6.82,84,100,2.75,GL,1690388364
295,mount isa,-20.7333,139.5,19.87,68,100,4.63,AU,1690388759
296,mount gambier,-37.8333,140.7667,7.03,86,36,3.7,AU,1690388937
297,kapuskasing,49.4169,-82.4331,19.05,82,100,3.6,CA,1690388901
298,nar'yan-mar,67.6713,53.087,19.52,76,100,1.72,RU,1690388355
299,newman,37.3138,-121.0208,29.02,56,3,1.34,US,1690388381
300,saurimo,-9.6608,20.3916,29.85,19,2,1.31,AO,1690388398
301,palmer,42.1584,-72.3287,29.23,63,4,0.45,US,1690388937
302,taroa,8.7058,171.2275,27.71,80,97,7.91,MH,1690388937
303,namibe,-15.1961,12.1522,18.52,79,17,3.15,AO,1690388401
304,cruzeiro do sul,-29.5128,-51.9853,25.29,75,100,2.97,BR,1690388937
305,port shepstone,-30.7414,30.455,19.36,77,0,5.3,ZA,1690388781
306,ibarreta,-25.2144,-59.8585,21.57,53,92,3.8,AR,1690388937
307,guiuan,11.0333,125.7247,28.52,79,100,8.47,PH,1690388938
308,panjakent,39.4952,67.6093,30.2,24,27,3.09,TJ,1690388938
309,arkalyk,50.2486,66.9114,18.84,73,46,6.84,KZ,1690388938
310,chumphon,10.3333,98.8333,23.56,94,94,2.12,TH,1690388938
311,fortuna,40.5982,-124.1573,17.18,88,40,2.57,US,1690388640
312,asa,58.0167,14.6,14.71,58,54,5.86,SE,1690388938
313,lucapa,-8.4192,20.7447,31.22,17,4,1.51,AO,1690388938
314,tenango de las flores,20.2058,-97.9881,21.74,68,100,2.11,MX,1690388938
315,caleta de carquin,-11.0925,-77.6267,21.4,71,44,3.51,PE,1690388938
316,serenje,-13.2325,30.2352,16.4,44,7,2.41,ZM,1690388939
317,rovaniemi,66.5,25.7167,18.67,68,20,1.54,FI,1690388453
318,nizao,18.25,-70.2,29.04,59,100,8.0,DO,1690388939
319,goba,7.0167,39.9833,11.9,91,66,2.33,ET,1690388939
320,djidiouia,35.9299,0.8287,37.51,17,0,4.02,DZ,1690388939
321,sterling,39.0062,-77.4286,32.19,59,20,2.24,US,1690388939
322,camrose,53.0168,-112.8353,11.69,87,99,4.29,CA,1690388939
323,nueva gerona,21.8833,-82.8,31.12,63,45,6.15,CU,1690388939
324,hinatuan,8.3722,126.3342,25.78,88,100,2.0,PH,1690388940
325,jiexiu,37.0244,111.9125,25.5,57,40,2.13,CN,1690388940
326,el calafate,-50.3408,-72.2768,-2.31,73,22,0.12,AR,1690388940
327,uturoa,-16.7333,-151.4333,25.57,85,30,5.05,PF,1690388342
328,salekhard,66.53,66.6019,16.84,97,100,3.37,RU,1690388940
329,uray,60.1247,64.7758,19.14,69,80,2.24,RU,1690388940
330,sinazongwe,-17.2614,27.4618,21.79,50,98,1.87,ZM,1690388941
331,zheleznodorozhnyy,55.7503,38.0042,25.75,80,39,5.33,RU,1690388941
332,sao tome,0.3365,6.7273,24.55,86,84,5.42,ST,1690388941
333,kuanda,56.3161,116.0806,18.96,70,31,1.45,RU,1690388760
334,pierre,44.3683,-100.351,37.38,36,0,2.06,US,1690388941
335,champerico,14.3,-91.9167,32.3,62,8,1.15,GT,1690388824
336,labrador city,52.9463,-66.9114,20.95,49,75,5.14,CA,1690388942
337,brisas de zicatela,15.8369,-97.0419,32.29,62,40,3.09,MX,1690388361
338,oye-plage,50.9771,2.0428,22.25,59,82,7.48,FR,1690388942
339,tanjung pandan,-2.75,107.65,25.36,88,54,2.77,ID,1690388942
340,ada,43.4166,-116.1262,24.16,46,0,1.79,US,1690388942
341,mili,6.0815,171.735,27.46,80,100,3.57,MH,1690388942
342,chigorodo,7.6664,-76.6811,29.89,74,40,2.06,CO,1690388943
343,majie,25.0333,102.6361,19.99,77,20,4.0,CN,1690388946
344,howard springs,-12.497,131.047,19.95,72,16,2.2,AU,1690388946
345,khodzha-maston,38.7446,68.627,25.68,38,26,6.24,TJ,1690388947
346,priob'ye,62.5206,65.5964,16.39,92,100,2.59,RU,1690388947
347,rio san juan,19.6439,-70.0763,31.2,74,33,6.33,DO,1690388947
348,nishinoomote,30.7333,131.0,27.57,86,88,4.43,JP,1690388364
349,shangmei,27.7428,111.2956,24.18,96,100,0.86,CN,1690388947
350,severobaykal'sk,55.65,109.3167,10.58,98,93,0.83,RU,1690388947
351,ankang,32.68,109.0172,25.2,85,100,1.1,CN,1690388948
352,brenham,30.1669,-96.3977,34.43,57,40,3.6,US,1690388948
353,ballina,-28.8667,153.5667,11.55,73,14,1.7,AU,1690388934
354,tabuk,17.4189,121.4443,24.8,76,100,5.26,PH,1690388407
355,camiri,-20.05,-63.5167,19.88,45,75,0.0,BO,1690388948
356,nova xavantina,-14.6667,-52.35,34.82,22,0,2.38,BR,1690388653
357,danielskuil,-28.1887,23.5395,18.67,30,23,7.91,ZA,1690388949
358,yatou,37.15,122.3833,24.37,91,99,2.65,CN,1690388732
359,budva,42.2864,18.84,30.14,72,40,4.12,ME,1690388911
360,douentza,14.9951,-2.9517,39.45,24,53,2.1,ML,1690388950
361,bodden town,19.2833,-81.25,26.66,95,75,2.57,KY,1690388951
362,copala,16.65,-98.9833,31.72,53,56,1.73,MX,1690388786
363,kudahuvadhoo,2.6708,72.8944,28.36,77,99,4.34,MV,1690388308
364,araraquara,-21.7944,-48.1756,27.86,30,7,2.94,BR,1690388951
365,bubaque,11.2833,-15.8333,27.34,81,96,5.84,GW,1690388398
366,chaeryong-up,38.3992,125.6156,23.38,96,97,1.86,KP,1690388952
367,vrangel',42.7297,133.0839,21.2,91,98,2.29,RU,1690388952
368,shushtar,32.0455,48.8567,42.28,7,0,3.37,IR,1690388952
369,afgooye,2.1381,45.1212,24.14,80,34,7.17,SO,1690388953
370,sovetskaya gavan',48.9723,140.2878,19.02,87,12,2.75,RU,1690388953
371,sant lluis,39.8526,4.2594,25.22,53,20,4.12,ES,1690388953
372,kyshtovka,56.555,76.6271,18.28,74,66,2.02,RU,1690388953
373,praia da vitoria,38.7333,-27.0667,26.14,73,20,2.42,PT,1690388369
374,kirakira,-10.4544,161.9205,26.06,89,100,4.54,SB,1690388954
375,grants,35.1473,-107.8514,28.13,18,0,2.06,US,1690388954
376,al ghayzah,16.2079,52.176,25.75,87,76,7.18,YE,1690388954
377,kone,-21.0595,164.8658,14.98,73,22,2.49,NC,1690388295
378,moose jaw,50.4001,-105.5344,25.15,33,20,9.26,CA,1690388954
379,neiafu,-18.65,-173.9833,18.38,94,20,0.0,TO,1690388955
380,kondoa,-4.9,35.7833,20.73,33,39,2.35,TZ,1690388955
381,mahanoro,-19.9,48.8,19.21,84,98,4.87,MG,1690388454
382,euclides da cunha,-10.5075,-39.0158,30.98,31,10,5.73,BR,1690388955
383,stephenville,32.2207,-98.2023,34.58,43,0,4.12,US,1690388956
384,imranli,39.8754,38.1136,24.26,44,0,1.88,TR,1690388956
385,stara vyzhivka,51.4376,24.44,15.63,97,100,3.6,UA,1690388956
386,chernivtsi,48.2915,25.9403,20.96,93,100,3.57,UA,1690388956
387,san juan del sur,11.2529,-85.8705,31.12,74,40,4.12,NI,1690388956
388,prince rupert,54.3161,-130.3201,14.05,96,100,2.57,CA,1690388424
389,keflavik,64.0049,-22.5624,15.95,72,100,1.03,IS,1690388468
390,hadibu,12.65,54.0333,25.33,76,33,9.3,YE,1690388437
391,sisimiut,66.9395,-53.6735,8.66,75,26,4.86,GL,1690388957
392,peniche,39.3558,-9.3811,26.83,81,0,8.39,PT,1690388957
393,kolondieba,11.0882,-6.8926,31.58,55,85,1.06,ML,1690388957
394,jiuquan,39.7432,98.5174,27.55,27,100,4.22,CN,1690388957
395,kabin buri,13.9511,101.7177,27.5,100,98,1.62,TH,1690388957
396,kaga bandoro,6.9896,19.1874,26.29,81,82,0.77,CF,1690388958
397,salinopolis,-0.6136,-47.3561,30.08,65,5,4.71,BR,1690388909
398,gaspe,48.8334,-64.4819,22.12,78,40,5.66,CA,1690388958
399,grand falls-windsor,48.9332,-55.6649,29.72,48,100,0.89,CA,1690388299
400,arteche,12.2645,125.4048,26.86,79,100,3.17,PH,1690388958
401,isla mujeres,21.2311,-86.731,32.03,74,33,3.99,MX,1690388958
402,cole harbour,44.6724,-63.4751,27.88,55,40,5.66,CA,1690388451
403,hassi messaoud,31.6804,6.0729,47.92,6,0,1.54,DZ,1690388959
404,maksatikha,57.797,35.8825,15.98,98,100,3.64,RU,1690388959
405,tambo,-14.8,-73.9167,9.51,9,0,3.37,PE,1690388959
406,viale,-31.8678,-60.0072,16.86,51,12,6.93,AR,1690388959
407,shakhty,47.7091,40.2144,29.79,36,3,1.24,RU,1690388959
408,thunder bay,48.4001,-89.3168,19.95,88,100,3.6,CA,1690388805
409,nuku'alofa,-21.1333,-175.2,20.19,73,75,2.06,TO,1690388906
410,kolonia town,6.964,158.206,27.2,84,100,6.92,FM,1690388960
411,maua,-23.6678,-46.4614,27.1,44,53,3.37,BR,1690388960
412,an nimas,19.1455,42.1201,23.11,37,97,2.64,SA,1690388960
413,fort st. john,56.2499,-120.8529,12.94,94,100,5.14,CA,1690388960
414,springfield,37.2153,-93.2982,33.16,53,0,8.75,US,1690388961
415,corleone,37.8134,13.3017,27.88,51,21,4.51,IT,1690388961
416,thinadhoo,0.5333,72.9333,28.63,79,53,6.97,MV,1690388961
417,nabire,-3.3667,135.4833,24.66,92,96,1.71,ID,1690388510
418,daru,-9.0763,143.2092,24.68,86,89,6.15,PG,1690388961
419,opuwo,-18.0607,13.84,27.57,15,0,0.86,NA,1690388961
420,gizo,-8.103,156.8419,26.62,86,68,6.76,SB,1690388961
421,gallup,35.5281,-108.7426,28.91,24,0,2.06,US,1690388962
422,bargoed,51.6833,-3.2333,16.12,92,100,0.45,GB,1690388962
423,tromso,69.6496,18.957,19.01,55,20,5.14,NO,1690388391
424,gadani,25.1185,66.7299,30.12,86,97,4.16,PK,1690388962
425,gorontalo,0.5412,123.0595,24.44,93,76,2.55,ID,1690388962
426,peterhead,57.5058,-1.7981,16.92,68,35,2.87,GB,1690388963
427,ilhabela,-23.7781,-45.3581,26.39,53,8,2.35,BR,1690388455
428,qarqaraly,49.4058,75.4742,23.65,32,100,2.11,KZ,1690388963
429,selkirk,50.1436,-96.8845,30.06,64,0,2.23,CA,1690388395
430,waingapu,-9.6567,120.2641,23.07,79,31,4.66,ID,1690388963
431,khandyga,62.6667,135.6,11.87,90,35,2.34,RU,1690388387
432,nadi,-17.8,177.4167,20.0,94,75,3.09,FJ,1690388917
433,itoman,26.1247,127.6694,28.01,89,75,6.17,JP,1690388415
434,driefontein,-27.0177,30.4498,13.6,40,23,1.5,ZA,1690388964
435,kargasok,59.0556,80.8572,16.26,92,41,2.64,RU,1690388964
436,agat village,13.3886,144.6585,27.52,95,100,6.17,GU,1690388964
437,kilindoni,-7.9139,39.6668,24.75,76,19,8.59,TZ,1690388964
438,beidaihehaibin,39.8222,119.5181,25.05,91,37,3.02,CN,1690388965
439,pinsk,52.1229,26.0951,20.19,71,98,1.66,BY,1690388965
440,kayangel,8.0823,134.7173,27.91,75,100,9.45,PW,1690388965
441,mountain house,37.7833,-121.5427,27.33,56,0,4.63,US,1690388965
442,mugia,43.1041,-9.2179,28.28,78,6,6.55,ES,1690388415
443,hafar al-batin,28.4328,45.9708,44.32,6,0,2.06,SA,1690388965
444,gusinoozyorsk,51.2833,106.5,15.62,77,54,2.22,RU,1690388772
445,saint-pierre,-21.3393,55.4781,21.82,83,75,2.57,RE,1690388966
446,machico,32.7,-16.7667,26.11,68,40,4.12,PT,1690388723
447,hatillo,18.4863,-66.8254,33.38,76,85,4.92,PR,1690388966
448,alofi,-19.0595,-169.9187,17.94,94,44,0.51,NU,1690388967
449,pacocha,-17.5833,-71.3333,19.08,77,100,2.57,PE,1690388967
450,cannonvale,-20.2833,148.7,20.66,75,30,9.61,AU,1690388967
451,island harbour,50.724,-1.2758,17.48,84,100,2.24,GB,1690388967
452,namsos,64.4662,11.4957,21.03,64,40,2.06,NO,1690388967
453,ola,59.5833,151.2833,11.98,95,100,2.29,RU,1690388968
454,sao jose da coroa grande,-8.8978,-35.1478,26.8,63,24,4.17,BR,1690388968
455,keene,42.9337,-72.2781,29.53,66,0,1.34,US,1690388706
456,chernyshevskiy,63.0128,112.4714,14.35,85,18,3.07,RU,1690388968
457,kununurra,-15.7667,128.7333,11.99,87,7,0.51,AU,1690388412
458,berdigestyakh,62.0989,126.6992,11.85,63,63,2.0,RU,1690388968
459,siracusa,37.0881,15.2792,34.06,65,10,6.14,IT,1690388969
460,ishigaki,24.3448,124.1572,29.07,89,75,8.75,JP,1690388969
461,nikolayevsk-on-amure,53.1406,140.73,18.69,98,100,1.36,RU,1690388969
462,jiashan,30.8492,120.9258,26.75,82,98,4.29,CN,1690388969
463,quellon,-43.1167,-73.6167,9.14,71,75,2.57,CL,1690388212
464,bamboo flat,11.7,92.7167,27.82,85,95,7.59,IN,1690388424
465,kingscliff,-28.2667,153.5667,14.87,82,75,2.06,AU,1690388969
466,nova sintra,14.8667,-24.7167,23.07,84,100,4.37,CV,1690388384
467,leava,-14.3,-178.1667,26.06,76,96,6.76,WF,1690388970
468,port saint john's,-31.6229,29.5448,19.7,62,0,3.78,ZA,1690388970
469,keelung,25.1283,121.7419,29.49,92,100,13.48,TW,1690388970
470,bela,25.9333,81.9833,33.53,54,98,5.93,IN,1690388970
471,nizhnyaya tavda,57.6731,66.1725,18.42,70,60,2.63,RU,1690388482
472,coari,-4.085,-63.1414,34.92,33,77,0.67,BR,1690388867
473,san carlos,9.6612,-68.5827,27.71,79,90,2.1,VE,1690388971
474,alice springs,-23.7,133.8833,11.75,71,75,0.0,AU,1690388454
475,karaton,-6.3424,106.1045,22.62,93,75,0.82,ID,1690388971
476,argayash,55.4888,60.8767,18.83,81,99,2.91,RU,1690388971
477,amga,60.8953,131.9608,12.87,82,10,1.31,RU,1690388971
478,pachino,36.7186,15.0907,29.76,56,38,5.07,IT,1690388972
479,kiunga,-6.1219,141.2906,22.17,96,100,1.11,PG,1690388972
480,esil,51.9556,66.4042,16.85,89,45,2.21,KZ,1690388972
481,udon thani,17.3333,102.8333,26.52,84,8,2.66,TH,1690388972
482,gornji milanovac,44.0333,20.45,18.05,92,100,3.36,RS,1690388972
483,berezovyy,51.6667,135.7,17.4,97,58,0.89,RU,1690388973
484,inhambane,-23.865,35.3833,20.99,64,75,2.57,MZ,1690388799
485,mitu,1.1983,-70.1733,32.2,50,7,1.05,CO,1690388973
486,zinder,13.8072,8.9881,34.98,49,20,6.17,NE,1690388973
487,novyy urgal,51.0736,132.5642,15.72,96,33,0.36,RU,1690388978
488,tucuma,-0.1833,-50.05,31.44,56,19,2.74,BR,1690388772
489,vilyuysk,63.7553,121.6247,13.71,57,100,2.31,RU,1690388979
490,shingu,33.7333,135.9833,24.99,90,91,2.2,JP,1690388979
491,carauari,-4.8828,-66.8958,35.0,35,1,1.26,BR,1690388689
492,sulak,43.2734,47.5146,25.04,73,0,6.54,RU,1690388980
493,phan thiet,10.9333,108.1,25.59,88,82,3.34,VN,1690388980
494,hrubieszow,50.805,23.8925,15.91,96,100,4.73,PL,1690388980
495,wesseling,50.8333,6.9833,22.84,47,0,6.17,DE,1690388980
496,berkane,34.9084,-2.3461,34.82,28,0,4.25,MA,1690388980
497,songyuan,45.1171,124.8568,24.07,87,79,4.95,CN,1690388981
498,liuhe,42.2401,125.7172,20.07,97,0,2.74,CN,1690388981
499,dryden,49.7833,-92.7503,24.16,73,0,3.09,CA,1690388885
500,tataouine,32.9297,10.4518,33.04,44,0,9.5,TN,1690388981
501,zhezkent,50.9311,81.3615,21.76,37,93,3.75,KZ,1690388981
502,kangding,30.0513,101.9603,15.42,99,99,1.2,CN,1690388982
503,kavieng,-2.5744,150.7967,27.68,78,98,7.07,PG,1690388982
504,kerikeri,-35.2268,173.9474,9.27,78,39,2.48,NZ,1690388406
505,gadzhiyevo,69.2551,33.3362,11.09,90,98,2.17,RU,1690388982
506,kitaibaraki,36.7833,140.75,24.52,92,47,2.04,JP,1690388982
507,kutum,14.2,24.6667,32.84,23,98,5.73,SD,1690388982
508,klyuchi,52.2667,79.1667,23.01,38,80,2.78,RU,1690388982
509,coxim,-18.5067,-54.76,34.9,17,0,2.32,BR,1690388982
510,cabedelo,-6.9811,-34.8339,29.37,72,11,7.02,BR,1690388983
511,bor,56.3567,44.0669,25.96,67,84,6.26,RU,1690388983
512,broken hill,-31.95,141.4333,11.01,57,0,4.46,AU,1690388941
513,malango,-2.9627,119.9001,19.57,98,95,0.41,ID,1690388508
514,cox's bazar,21.4532,91.9798,27.05,85,56,6.27,BD,1690388983
515,lubang,13.8584,120.124,28.56,82,100,13.03,PH,1690388983
516,beawar,26.1,74.3167,29.82,70,99,3.13,IN,1690388983
517,crixas,-14.5489,-49.9692,34.05,19,0,2.8,BR,1690388772
518,lishui,28.4604,119.9103,24.53,92,24,1.46,CN,1690388984
519,weston,26.1004,-80.3998,31.12,73,0,1.79,US,1690388984
520,yanchep,-31.55,115.6833,12.94,76,99,8.11,AU,1690388984
521,karagandy,49.8019,73.1021,23.97,44,100,5.48,KZ,1690388984
522,manokwari,-0.8667,134.0833,26.03,79,76,1.28,ID,1690388984
523,suonenjoki,62.6167,27.1333,19.0,72,75,1.83,FI,1690388984
524,trabzon,40.9167,39.8333,23.05,69,40,3.09,TR,1690388984
525,lata,40.1629,-8.3327,29.16,42,0,5.61,PT,1690388984
526,suining,30.508,105.5733,24.62,93,100,1.21,CN,1690388985
527,vorkuta,67.5,64.0,16.56,80,100,4.41,RU,1690388386
528,beau vallon,-20.4189,57.6953,21.79,94,40,1.54,MU,1690388985
529,luanda,-8.8368,13.2343,24.0,73,20,5.14,AO,1690388764
530,villa bruzual,9.3328,-69.1208,26.67,88,93,2.36,VE,1690388985
531,kapa'a,22.0752,-159.319,25.18,90,100,6.69,US,1690388919
532,xicotencatl,23.0167,-98.8833,30.2,52,99,3.93,MX,1690388985
533,shimoda,34.6667,138.95,25.61,87,71,2.17,JP,1690388985
534,formosa do rio preto,-11.0483,-45.1931,32.31,22,18,3.7,BR,1690388986
535,kailua-kona,19.6406,-155.9956,25.98,88,40,2.06,US,1690388986
536,alta,69.9689,23.2717,18.59,72,0,4.47,NO,1690388983
537,las khorey,11.1595,48.1967,33.09,53,6,2.6,SO,1690388987
538,bikenibeu village,1.3673,173.1241,26.98,83,40,0.0,KI,1690388987
539,merizo village,13.2658,144.6691,27.31,96,100,9.42,GU,1690388987
540,kaka,37.3482,59.6143,35.94,28,0,9.44,TM,1690388987
541,charters towers,-20.1,146.2667,13.47,82,9,3.67,AU,1690388988
542,aykhal,66.0,111.5,16.22,67,100,4.3,RU,1690388400
543,tapiramuta,-11.8472,-40.7914,24.65,48,82,3.43,BR,1690388988
544,westport,41.1415,-73.3579,30.78,66,0,0.45,US,1690388454
545,burang,30.25,81.1667,11.46,85,99,2.0,CN,1690388988
546,aghajari,30.7006,49.8315,41.12,11,0,4.12,IR,1690388988
547,port macquarie,-31.4333,152.9167,7.72,92,9,2.11,AU,1690388988
548,sao felix do xingu,-6.6447,-51.995,35.87,24,1,1.91,BR,1690388988
549,fale old settlement,-9.3852,-171.2468,28.13,75,75,8.32,TK,1690388989
550,andilamena,-17.0167,48.5833,14.77,91,38,4.54,MG,1690388989
551,nueva concepcion,14.2,-91.3,31.25,58,20,0.6,GT,1690388989
552,usoke,-5.1667,32.35,24.26,22,19,2.35,TZ,1690388989
553,korla,41.7597,86.1469,30.79,23,0,3.56,CN,1690388834
554,calderitas,18.55,-88.25,32.06,66,40,0.0,MX,1690388989
555,scottsburg,38.6856,-85.7702,31.98,65,57,3.13,US,1690388990
556,port moresby,-9.4431,147.1797,23.68,88,40,2.57,PG,1690388509
557,nelson,-41.2833,173.2833,2.94,81,78,2.24,NZ,1690388990
558,sechura,-5.5569,-80.8222,25.18,60,90,3.98,PE,1690388990
559,inverell,-29.7833,151.1167,6.62,94,0,2.01,AU,1690388853
560,kenai,60.5544,-151.2583,13.97,91,0,3.09,US,1690388451
561,tsiombe,-25.3,45.4833,18.68,58,4,5.63,MG,1690388450
562,rivera,-30.9053,-55.5508,13.35,91,100,5.7,UY,1690388871
563,khvoynaya,58.9,34.5333,15.27,97,100,1.11,RU,1690388991
564,severo-yeniseyskiy,60.3725,93.0408,14.49,93,86,0.48,RU,1690388991
565,colonia,50.9333,6.95,22.76,47,0,5.14,DE,1690388163
566,illescas,40.1221,-3.847,34.84,17,0,0.27,ES,1690388991
567,afif,23.9065,42.9172,36.24,10,98,5.47,SA,1690388991
568,bakal,54.9417,58.8083,14.57,94,92,1.85,RU,1690388991
569,chos malal,-37.3781,-70.2709,8.58,37,76,2.07,AR,1690388991
570,port blair,11.6667,92.75,28.02,83,40,7.63,IN,1690388992
571,lagoa,39.05,-27.9833,22.0,81,0,5.14,PT,1690388992
572,sidney,-33.8679,151.2073,12.57,81,1,3.6,AU,1690388701
573,enshi,30.3,109.4833,23.29,97,100,0.56,CN,1690388992
574,suva,-18.1416,178.4415,19.71,100,75,1.03,FJ,1690388992
575,kuragino,53.8975,92.6725,15.7,85,38,0.62,RU,1690388993
576,hell-ville,-13.4,48.2667,25.68,68,68,2.79,MG,1690388993
577,olyokminsk,60.3736,120.4264,17.79,94,63,1.95,RU,1690388993
578,yuzhno-kurilsk,44.0306,145.8556,17.47,97,42,1.63,RU,1690388706
579,turkmenbasy,40.0222,52.9552,25.43,61,0,7.2,TM,1690388859
580,eastham,41.8301,-69.9739,30.89,65,0,4.63,US,1690388993
581,arroyo,41.6096,-4.7969,31.19,26,0,2.06,ES,1690388993
